{
  "type": "FeatureCollection",
  "features": [
    {"type":"Feature","properties":{"id":1,"name":"Rectorat UAC","type":"Administration","description":"Siège administratif de l'université.","tags":["Administration","Rectorat"],"openingHours":"08:00 - 17:00"},"geometry":{"type":"Point","coordinates":[2.3450,6.4180]}},
    {"type":"Feature","properties":{"id":2,"name":"Amphithéâtre A1000","type":"Amphithéâtre","description":"Salle principale de cours magistral, capacité 1000.","tags":["Amphi","A1000"],"openingHours":"07:30 - 22:00","capacity":1000},"geometry":{"type":"Point","coordinates":[2.3448,6.4182]}},
    {"type":"Feature","properties":{"id":3,"name":"Amphithéâtre B750","type":"Amphithéâtre","description":"Salle moyenne de cours magistral, capacité 750.","tags":["Amphi","B750"],"openingHours":"07:30 - 22:00","capacity":750},"geometry":{"type":"Point","coordinates":[2.3446,6.4185]}},
    {"type":"Feature","properties":{"id":4,"name":"Bibliothèque centrale","type":"Bibliothèque","description":"Ressources généralistes pour étudiants et enseignants.","tags":["Bibliothèque","Documentation"],"openingHours":"08:00 - 20:00"},"geometry":{"type":"Point","coordinates":[2.3440,6.4190]}},
    {"type":"Feature","properties":{"id":5,"name":"Bibliothèque spécialisée sciences","type":"Bibliothèque","description":"Documentation scientifique et technique.","tags":["Bibliothèque","Sciences"],"openingHours":"08:00 - 18:00"},"geometry":{"type":"Point","coordinates":[2.3438,6.4195]}},
    {"type":"Feature","properties":{"id":6,"name":"Cité universitaire A","type":"Logement","description":"Résidence étudiants bloc A, buanderie et espaces communs.","tags":["Logement","Cité A"],"openingHours":"24/7"},"geometry":{"type":"Point","coordinates":[2.3420,6.4160]}},
    {"type":"Feature","properties":{"id":7,"name":"Cité universitaire B","type":"Logement","description":"Résidence étudiants bloc B.","tags":["Logement","Cité B"],"openingHours":"24/7"},"geometry":{"type":"Point","coordinates":[2.3425,6.4165]}},
    {"type":"Feature","properties":{"id":8,"name":"Cité universitaire C","type":"Logement","description":"Résidence étudiants bloc C.","tags":["Logement","Cité C"],"openingHours":"24/7"},"geometry":{"type":"Point","coordinates":[2.3430,6.4170]}},
    {"type":"Feature","properties":{"id":9,"name":"Restaurant Universitaire principal","type":"Restaurant","description":"Repas pour étudiants et enseignants.","tags":["RU","Cantine"],"openingHours":"11:00 - 15:00"},"geometry":{"type":"Point","coordinates":[2.3442,6.4175]}},
    {"type":"Feature","properties":{"id":10,"name":"Restaurant Universitaire secondaire","type":"Restaurant","description":"Petit RU pour filières techniques.","tags":["RU","Cantine"],"openingHours":"11:00 - 15:00"},"geometry":{"type":"Point","coordinates":[2.3445,6.4178]}},
    {"type":"Feature","properties":{"id":11,"name":"Amphithéâtre C500","type":"Amphithéâtre","description":"Salle de cours capacité moyenne 500.","tags":["Amphi","C500"],"openingHours":"07:30 - 22:00","capacity":500},"geometry":{"type":"Point","coordinates":[2.3435,6.4187]}},
    {"type":"Feature","properties":{"id":12,"name":"Amphithéâtre D400","type":"Amphithéâtre","description":"Salle de cours capacité moyenne 400.","tags":["Amphi","D400"],"openingHours":"07:30 - 22:00","capacity":400},"geometry":{"type":"Point","coordinates":[2.3437,6.4185]}},
    {"type":"Feature","properties":{"id":13,"name":"Amphithéâtre E350","type":"Amphithéâtre","description":"Salle de cours capacité 350.","tags":["Amphi","E350"],"openingHours":"07:30 - 22:00","capacity":350},"geometry":{"type":"Point","coordinates":[2.3436,6.4188]}},
    {"type":"Feature","properties":{"id":14,"name":"Laboratoire de Génie Mécanique","type":"Laboratoire","description":"TP et recherches en mécanique et matériaux.","tags":["Laboratoire","Mécanique"],"openingHours":"08:00 - 18:00"},"geometry":{"type":"Point","coordinates":[2.3412,6.4196]}},
    {"type":"Feature","properties":{"id":15,"name":"Laboratoire de Physique Nucléaire","type":"Laboratoire","description":"Recherches en physique nucléaire et particules.","tags":["Laboratoire","Physique"],"openingHours":"08:00 - 18:00"},"geometry":{"type":"Point","coordinates":[2.3420,6.4179]}},
    {"type":"Feature","properties":{"id":16,"name":"Laboratoire d'Hydraulique et Génie Civil","type":"Laboratoire","description":"TP et projets hydrauliques et civils.","tags":["Laboratoire","Hydraulique"],"openingHours":"08:00 - 18:00"},"geometry":{"type":"Point","coordinates":[2.3415,6.4167]}},
    {"type":"Feature","properties":{"id":17,"name":"Laboratoire de Chimie Inorganique","type":"Laboratoire","description":"TP et recherche en chimie inorganique.","tags":["Chimie","Inorganique"],"openingHours":"08:00 - 18:00"},"geometry":{"type":"Point","coordinates":[2.3428,6.4171]}},
    {"type":"Feature","properties":{"id":18,"name":"Laboratoire de Microélectronique","type":"Laboratoire","description":"TP microélectronique et circuits intégrés.","tags":["Électronique","Microélectronique"],"openingHours":"08:00 - 18:00"},"geometry":{"type":"Point","coordinates":[2.3414,6.4182]}},
    {"type":"Feature","properties":{"id":19,"name":"Laboratoire de Biophysique","type":"Laboratoire","description":"Recherches interdisciplinaires biologie/physique.","tags":["Biophysique","Recherche"],"openingHours":"08:00 - 18:00"},"geometry":{"type":"Point","coordinates":[2.3419,6.4189]}},
    {"type":"Feature","properties":{"id":20,"name":"Laboratoire de Bioinformatique","type":"Laboratoire","description":"Analyse génomique et données biologiques.","tags":["Bioinformatique","TP"],"openingHours":"08:00 - 18:00"},"geometry":{"type":"Point","coordinates":[2.3421,6.4195]}},
    {"type":"Feature","properties":{"id":21,"name":"Centre de Recherche Énergies Renouvelables","type":"Centre de recherche","description":"Projets R&D sur solaire, éolien et biomasse.","tags":["Énergie","Recherche"],"openingHours":"08:00 - 17:00"},"geometry":{"type":"Point","coordinates":[2.3405,6.4180]}},
    {"type":"Feature","properties":{"id":22,"name":"Centre de Langues","type":"Centre / Formation","description":"Cours et certifications de langues (Anglais, Français, Arabe, Chinois).","tags":["Langues","Formation"],"openingHours":"08:00 - 18:00"},"geometry":{"type":"Point","coordinates":[2.3465,6.4195]}},
    {"type":"Feature","properties":{"id":23,"name":"Centre de Culture et Arts numériques","type":"Culture","description":"Expositions, théâtre et activités multimédia.","tags":["Culture","Arts"],"openingHours":"09:00 - 22:00"},"geometry":{"type":"Point","coordinates":[2.3462,6.4186]}},
    {"type":"Feature","properties":{"id":24,"name":"Espace de coworking / Innovation étudiants","type":"Service","description":"Travail collaboratif, start-ups et projets étudiants.","tags":["Innovation","Coworking"],"openingHours":"08:00 - 20:00"},"geometry":{"type":"Point","coordinates":[2.3448,6.4203]}},
    {"type":"Feature","properties":{"id":25,"name":"Parking principal","type":"Parking","description":"Parking central pour étudiants et personnel.","tags":["Parking"],"openingHours":"24/7"},"geometry":{"type":"Point","coordinates":[2.3455,6.4175]}},
    {"type":"Feature","properties":{"id":26,"name":"Terrain de football principal","type":"Sport","description":"Terrain principal pour compétitions et entraînements.","tags":["Sport","Football"],"openingHours":"07:00 - 20:00"},"geometry":{"type":"Point","coordinates":[2.3470,6.4190]}},
    {"type":"Feature","properties":{"id":27,"name":"Terrain de basket","type":"Sport","description":"Salle de basket intérieure et extérieure.","tags":["Sport","Basket"],"openingHours":"07:00 - 20:00"},"geometry":{"type":"Point","coordinates":[2.3468,6.4185]}},
    {"type":"Feature","properties":{"id":28,"name":"Stade universitaire","type":"Sport","description":"Stade multisports et piste d'athlétisme.","tags":["Sport","Stade"],"openingHours":"07:00 - 20:00"},"geometry":{"type":"Point","coordinates":[2.3460,6.4170]}}
  ]
}
